City,Lat,Lng,Max Temp,Humidity,Cloudiness,Wind Speed,Country,Date
Daru,-9.0763,143.2092,79.34,87,100,10.07,PG,1611351610
Punta Arenas,-53.15,-70.9167,57.2,33,40,21.85,CL,1611351610
Mīzan Teferī,6.9833,35.5833,66.09,58,86,2.73,ET,1611351610
Jamestown,42.097,-79.2353,23.0,86,90,16.11,US,1611351423
Nikolskoye,59.7035,30.7861,35.6,87,40,15.66,RU,1611351611
Rikitea,-23.1203,-134.9692,78.33,74,0,13.24,PF,1611351319
Hermanus,-34.4187,19.2345,66.0,93,0,3.06,ZA,1611351611
Kruisfontein,-34.0033,24.7314,73.0,88,2,1.01,ZA,1611351611
Mataura,-46.1927,168.8643,55.99,64,100,8.99,NZ,1611351612
Saint-Pierre,-21.3393,55.4781,78.8,78,0,3.44,RE,1611351613
Yellowknife,62.456,-114.3525,-13.0,70,75,6.91,CA,1611351613
Barrow,71.2906,-156.7887,8.6,72,90,25.32,US,1611351613
Lebu,-37.6167,-73.65,64.35,67,0,20.2,CL,1611351614
Cayenne,4.9333,-52.3333,78.8,94,20,5.75,GF,1611351614
Yangi Marg`ilon,40.4272,71.7189,24.8,74,90,6.91,UZ,1611351614
Busselton,-33.65,115.3333,60.01,97,4,1.01,AU,1611351614
Bredasdorp,-34.5322,20.0403,71.6,88,0,2.3,ZA,1611351614
Thompson,55.7435,-97.8558,-7.6,77,75,9.22,CA,1611351614
Vaini,-21.2,-175.2,75.2,100,90,3.44,TO,1611351615
New Norfolk,-42.7826,147.0587,64.0,55,98,3.0,AU,1611351615
Cabo San Lucas,22.8909,-109.9124,78.8,57,75,14.97,MX,1611351354
Meulaboh,4.1363,96.1285,74.7,87,94,4.16,ID,1611351615
Puerto Ayora,-0.7393,-90.3518,80.6,78,75,6.91,EC,1611351615
Baykit,61.67,96.37,-37.93,75,100,3.65,RU,1611351615
General Pico,-35.6566,-63.7568,101.25,13,0,12.26,AR,1611351616
Westport,41.1415,-73.3579,42.01,50,42,12.15,US,1611351401
Avera,33.194,-82.5271,53.6,87,40,5.08,US,1611351616
Den Helder,52.9599,4.7593,37.0,87,90,6.91,NL,1611351616
Bluff,-46.6,168.3333,55.99,64,55,8.99,NZ,1611351616
Portland,45.5234,-122.6762,50.0,53,1,5.41,US,1611351605
Dikson,73.5069,80.5464,-16.83,90,100,5.84,RU,1611351617
Hong Kong,22.2855,114.1577,66.0,89,0,6.6,HK,1611351533
Harper,4.375,-7.7169,78.49,83,5,6.89,LR,1611351618
Pangnirtung,66.1451,-65.7125,26.6,63,75,2.3,CA,1611351618
Wukari,7.85,9.7833,75.63,20,70,4.21,NG,1611351618
Ayan,56.45,138.1667,-21.41,73,0,10.09,RU,1611351618
Aleksinac,43.5417,21.7078,48.2,66,0,6.91,RS,1611351619
Pedra Azul,-16.0053,-41.2972,67.77,85,50,6.08,BR,1611351619
Bay City,43.5945,-83.8889,21.2,53,90,13.8,US,1611351619
Tuktoyaktuk,69.4541,-133.0374,-16.6,76,75,19.57,CA,1611351620
Saldanha,-33.0117,17.9442,64.4,88,2,10.36,ZA,1611351620
Katherine,-14.4667,132.2667,77.0,94,100,3.44,AU,1611351620
Morant Bay,17.8815,-76.4093,82.99,69,20,19.57,JM,1611351620
Andros Town,24.7,-77.7667,73.4,68,75,8.05,BS,1611351621
Albany,42.6001,-73.9662,37.0,58,66,8.7,US,1611351621
Tazovsky,67.4667,78.7,-41.98,79,5,6.62,RU,1611351621
Port Elizabeth,-33.918,25.5701,73.4,94,75,11.5,ZA,1611351621
Gao,16.6362,1.637,66.79,23,94,9.75,ML,1611351621
Hirara,24.8,125.2833,71.71,91,92,19.91,JP,1611351622
Hobart,-42.8794,147.3294,64.99,48,75,11.5,AU,1611351418
Bambous Virieux,-20.3428,57.7575,80.6,78,75,9.22,MU,1611351622
Abbeville,50.1,1.8333,39.99,84,100,11.18,FR,1611351622
Airai,-8.9266,125.4092,62.78,100,100,1.92,TL,1611351623
Yelabuga,55.7613,52.0649,6.8,85,90,4.47,RU,1611351623
Tiksi,71.6872,128.8694,-38.74,81,100,8.81,RU,1611351624
Qasigiannguit,68.8193,-51.1922,23.0,46,42,4.61,GL,1611351624
Vol'sk,52.0333,47.3833,21.54,98,100,4.65,RU,1611351624
Laguna,38.421,-121.4238,54.0,82,90,5.75,US,1611351624
Green Valley,31.8543,-110.9937,64.0,49,0,15.3,US,1611351624
Carnarvon,-24.8667,113.6333,75.2,78,53,12.66,AU,1611351625
Colares,38.7992,-9.4469,55.99,86,51,13.04,PT,1611351625
Kez,57.8979,53.7152,-14.08,88,75,6.8,RU,1611351625
Kapaa,22.0752,-159.319,77.0,78,75,19.57,US,1611351625
Dalvik,65.9702,-18.5286,28.4,86,90,33.38,IS,1611351626
Makakilo City,21.3469,-158.0858,82.4,47,40,11.5,US,1611351626
Angoram,-4.0625,144.0661,75.88,95,100,1.48,PG,1611351626
Lebyazh'ye,55.2689,66.4947,-18.51,88,71,6.85,RU,1611351626
Arman',59.7,150.1667,-13.2,79,34,8.59,RU,1611351626
Pochutla,15.7432,-96.4661,87.8,48,20,6.91,MX,1611351627
Lorengau,-2.0226,147.2712,80.49,72,100,3.89,PG,1611351627
Konëvo,62.1215,39.3192,2.37,93,100,8.43,RU,1611351627
Beringovskiy,63.05,179.3167,-5.84,89,2,4.25,RU,1611351627
Benguela,-12.5763,13.4055,74.08,76,35,5.03,AO,1611351628
Ushuaia,-54.8,-68.3,57.2,35,40,13.8,AR,1611351519
Hilo,19.7297,-155.09,78.8,65,75,5.75,US,1611351628
Sinop Province,41.7711,34.8709,34.75,83,9,14.7,TR,1611351628
Taltal,-25.4,-70.4833,69.31,61,22,5.1,CL,1611351629
Berlevåg,70.8578,29.0864,14.0,73,98,13.8,NO,1611351629
Mgandu,-5.95,34.1333,61.14,96,97,2.91,TZ,1611351629
Nguruka,-5.1092,31.0419,65.32,94,100,2.75,TZ,1611351629
Lüderitz,-26.6481,15.1594,71.2,63,0,19.55,NA,1611351629
Mahébourg,-20.4081,57.7,80.6,78,75,9.22,MU,1611351630
Pisco,-13.7,-76.2167,78.8,57,0,11.5,PE,1611351630
Cedar City,37.6775,-113.0619,46.4,53,40,17.27,US,1611351628
Hithadhoo,-0.6,73.0833,81.9,72,99,5.75,MV,1611351630
Kadaya,50.9327,119.2911,-13.5,90,100,3.96,RU,1611351631
Qaanaaq,77.484,-69.3632,15.1,83,94,6.15,GL,1611351631
Grand Forks,47.9417,-97.4337,21.2,73,90,9.22,US,1611351631
Quang Ngai,15.1167,108.8,66.0,91,95,4.94,VN,1611351631
Komsomolsk-on-Amur,50.552,137.0152,-16.76,88,99,4.47,RU,1611351632
Pevek,69.7008,170.3133,-9.36,90,100,11.65,RU,1611351632
Laas,46.6166,10.7002,37.0,100,90,3.78,IT,1611351632
Ilulissat,69.2167,-51.1,23.0,46,39,4.61,GL,1611351632
Tommot,58.9564,126.2925,-32.98,80,100,1.36,RU,1611351633
Escada,-8.3592,-35.2236,80.6,61,40,11.5,BR,1611351633
Jalu,29.0331,21.5482,47.93,55,0,8.14,LY,1611351633
Assiut,27.181,31.1837,50.0,71,0,5.75,EG,1611351633
Port Alfred,-33.5906,26.891,72.0,94,70,4.0,ZA,1611351634
Saint George,37.1041,-113.5841,55.99,46,75,3.44,US,1611351497
Vardø,70.3705,31.1107,15.8,86,75,27.63,NO,1611351634
Ribeira Grande,38.5167,-28.7,62.6,94,75,14.97,PT,1611351634
Vostok,46.4856,135.8833,-10.5,88,1,4.23,RU,1611351635
Tual,-5.6667,132.75,85.06,70,100,5.55,ID,1611351635
Rancho Palos Verdes,33.7445,-118.387,61.0,63,75,11.5,US,1611351635
Souillac,-20.5167,57.5167,80.6,78,75,9.22,MU,1611351635
Umluj,25.0213,37.2685,70.97,40,0,4.79,SA,1611351636
Idaho Falls,43.4666,-112.0341,32.0,86,90,6.91,US,1611351636
Bariloche,-41.1456,-71.3082,91.4,18,0,23.02,AR,1611351636
Arraial do Cabo,-22.9661,-42.0278,78.8,73,40,11.5,BR,1611351636
Pueblo,38.2545,-104.6091,50.0,34,1,8.05,US,1611351637
Buta,2.7858,24.73,71.87,43,76,0.22,CD,1611351637
Bethel,41.3712,-73.414,39.2,45,1,12.66,US,1611351413
Salalah,17.0151,54.0924,73.4,25,0,3.44,OM,1611351637
Gazimurskiy Zavod,51.5461,118.3266,-3.96,88,84,4.23,RU,1611351638
Fuerte Olimpo,-21.0415,-57.8738,79.99,78,99,4.38,PY,1611351638
Río Gallegos,-51.6226,-69.2181,59.0,47,75,23.02,AR,1611351638
Palencia,42.4167,-4.5,39.99,87,48,17.0,ES,1611351638
Verkhnevilyuysk,63.4453,120.3167,-57.51,56,57,2.55,RU,1611351639
Porto Nacional,-10.7081,-48.4172,84.2,70,20,3.44,BR,1611351639
Turukhansk,65.8167,87.9833,-38.43,73,0,6.24,RU,1611351639
Dmitriyevskaya,45.6564,40.7653,31.19,92,15,6.06,RU,1611351640
Chunoyar,57.4467,97.3217,-16.37,86,100,2.57,RU,1611351640
Osa,57.2829,55.4567,-13.92,87,56,5.75,RU,1611351640
Ladário,-19.0047,-57.6017,91.4,66,20,6.91,BR,1611351387
Ugoofaaru,5.6667,73.0,81.66,76,2,9.91,MV,1611351641
Roxana,10.2753,-83.7513,75.2,60,75,17.27,CR,1611351641
Samarai,-10.6167,150.6667,82.8,75,90,6.4,PG,1611351641
Honningsvåg,70.9821,25.9704,14.0,73,0,24.16,NO,1611351641
Kodinsk,58.6881,99.1844,-25.51,84,100,4.5,RU,1611351641
Velyka Lepetykha,47.1757,33.9436,40.01,95,87,14.76,UA,1611351642
Koumac,-20.5667,164.2833,77.2,85,97,8.28,NC,1611351642
Norman Wells,65.282,-126.8329,-9.4,77,40,6.91,CA,1611351642
Paamiut,61.994,-49.6678,23.27,90,1,11.34,GL,1611351643
Teya,60.3778,92.6267,-23.31,83,100,2.44,RU,1611351643
Vila Velha,-20.3297,-40.2925,82.4,69,20,8.05,BR,1611351643
Coquimbo,-29.9533,-71.3436,68.0,68,0,13.8,CL,1611351643
La Ronge,55.1001,-105.2842,1.4,78,99,3.44,CA,1611351644
Mercedes,-34.6515,-59.4307,91.99,46,0,4.0,AR,1611351470
Lander,42.833,-108.7307,30.99,74,20,3.44,US,1611351644
Voh,-20.9667,164.7,75.29,86,100,5.55,NC,1611351644
Severo-Kuril'sk,50.6789,156.125,21.88,87,100,11.63,RU,1611351644
Meadow Lake,34.8014,-106.5436,57.0,43,20,4.61,US,1611351645
Barra Patuca,15.8,-84.2833,80.28,77,12,9.35,HN,1611351645
Bom Jesus da Lapa,-13.255,-43.4181,81.52,44,13,6.62,BR,1611351645
The Valley,18.217,-63.0578,82.4,69,20,10.36,AI,1611351645
Narsaq,60.9167,-46.05,19.4,58,0,3.44,GL,1611351646
Upernavik,72.7868,-56.1549,19.47,81,10,3.51,GL,1611351646
Mugumu,-1.85,34.7,61.27,96,100,3.06,TZ,1611351646
Musayelyan,40.7577,43.9927,-7.6,71,0,1.14,AM,1611351646
Nakapiripirit,1.9167,34.7833,68.95,63,100,6.44,UG,1611351646
Verkhnyaya Inta,65.9811,60.3094,-22.72,87,88,0.85,RU,1611351647
Abéché,13.8292,20.8324,67.03,22,99,9.33,TD,1611351647
Cape Town,-33.9258,18.4232,72.0,94,20,12.66,ZA,1611351628
Lakes Entrance,-37.8811,147.981,63.0,89,50,5.39,AU,1611351647
Marsh Harbour,26.5412,-77.0636,72.81,67,6,13.22,BS,1611351648
El Cobre,20.0489,-75.9469,82.4,69,40,5.75,CU,1611351648
Belmonte,-15.8631,-38.8828,78.8,69,20,8.05,BR,1611351648
Kabanjahe,3.1001,98.4908,73.4,100,75,3.44,ID,1611351648
Puerto Madero,14.7208,-92.4215,89.6,51,20,5.75,MX,1611351649
Port Hardy,50.6996,-127.4199,39.2,75,75,6.91,CA,1611351649
Castelo Branco,39.8222,-7.4909,46.99,82,16,5.99,PT,1611351649
Alofi,-19.0595,-169.9187,84.2,79,100,9.22,NU,1611351650
Kitimat,54.0524,-128.6534,32.0,72,0,3.56,CA,1611351650
George Town,5.4112,100.3354,80.6,83,20,2.3,MY,1611351650
Akdepe,42.0551,59.3788,32.0,80,90,16.11,TM,1611351651
Grindavik,63.8424,-22.4338,26.6,74,20,27.63,IS,1611351651
Port Macquarie,-31.4333,152.9167,77.0,94,40,8.84,AU,1611351651
Esperance,-33.8667,121.9,68.0,68,100,10.92,AU,1611351651
Santa Maria,-29.6842,-53.8069,80.42,63,59,10.78,BR,1611351651
Birao,10.2849,22.7882,69.8,22,10,5.59,CF,1611351652
Sibolga,1.7427,98.7792,74.86,82,81,4.59,ID,1611351652
Dingle,10.9995,122.6711,74.37,86,49,1.9,PH,1611351652
Kununurra,-15.7667,128.7333,78.8,100,100,4.23,AU,1611351652
Hastings,50.8552,0.5729,39.99,82,99,1.99,GB,1611351652
Kermanshah,34.3142,47.065,26.6,59,0,6.91,IR,1611351653
Khatanga,71.9667,102.5,-32.17,84,97,8.41,RU,1611351653
Kavaratti,10.5669,72.642,80.4,72,5,6.51,IN,1611351653
Rudnichnyy,59.617,52.4703,-10.03,89,100,5.32,RU,1611351653
Pirovskoye,57.6267,92.2658,-2.63,91,100,7.18,RU,1611351654
Mount Gambier,-37.8333,140.7667,55.4,94,4,1.14,AU,1611351654
Iranshahr,27.2025,60.6848,50.0,14,0,11.5,IR,1611351654
Castro,-24.7911,-50.0119,66.58,93,100,6.55,BR,1611351654
Gemena,3.25,19.7667,75.09,34,73,2.68,CD,1611351655
Quatre Cocos,-20.2078,57.7625,80.6,78,75,9.22,MU,1611351655
Avarua,-21.2078,-159.775,87.8,66,40,14.97,CK,1611351655
Beyneu,45.3167,55.2,31.46,99,100,18.32,KZ,1611351656
Basqal,40.7552,48.391,24.8,86,0,3.44,AZ,1611351656
Guerrero Negro,27.9769,-114.0611,66.99,50,0,12.03,MX,1611351656
Sitka,57.0531,-135.33,37.4,93,75,8.05,US,1611351656
Benjamin Constant,-4.3831,-70.0311,77.0,83,20,2.3,BR,1611351657
San Juan,-31.5375,-68.5364,98.06,12,0,5.59,AR,1611351657
Raudeberg,61.9875,5.1352,39.0,89,100,10.38,NO,1611351657
Butaritari,3.0707,172.7902,79.32,83,54,10.42,KI,1611351657
Sangre Grande,10.5835,-61.1177,84.2,65,20,11.5,TT,1611351658
Santa Isabel Rio Negro,-0.4139,-65.0192,79.39,91,60,2.75,BR,1611351658
Suntar,62.1444,117.6319,-55.59,63,56,4.03,RU,1611351658
Mar del Plata,-38.0023,-57.5575,78.8,69,0,16.11,AR,1611351587
Cartagena del Chairá,1.3349,-74.8429,73.92,95,84,4.14,CO,1611351659
Tonantins,-2.8731,-67.8022,82.78,76,79,0.76,BR,1611351659
Inírida,3.8653,-67.9239,80.02,86,92,2.19,CO,1611351660
Bengkulu,-3.8004,102.2655,75.04,82,17,5.46,ID,1611351660
Parkes,-33.1333,148.1833,81.0,53,0,5.01,AU,1611351660
Khovd,48.0056,91.6419,11.08,82,100,0.81,MN,1611351660
Ashland,40.8167,-82.2665,27.0,59,90,10.36,US,1611351456
Ponta do Sol,32.6667,-17.1,61.0,79,34,3.0,PT,1611351661
Atuona,-9.8,-139.0333,78.26,77,0,14.43,PF,1611351661
Asău,46.4333,26.4,41.0,55,57,5.19,RO,1611351661
Bongandanga,1.5,21.05,75.27,44,97,1.63,CD,1611351661
Xining,36.6167,101.7667,20.07,66,24,2.57,CN,1611351662
Iqaluit,63.7506,-68.5145,24.8,86,75,17.27,CA,1611351518
Hamilton,39.1834,-84.5333,37.0,48,1,11.5,US,1611351636
Baruun-Urt,46.6806,113.2792,3.85,93,7,10.49,MN,1611351662
Aykhal,66.0,111.5,-44.73,76,71,3.87,RU,1611351663
Roald,62.5833,6.1333,37.4,87,40,6.91,NO,1611351663
Hofn,64.2539,-15.2082,29.89,90,78,28.54,IS,1611351663
Mariehamn,60.0973,19.9348,39.2,81,20,24.16,AX,1611351663
Bela,25.9333,81.9833,50.09,65,0,1.54,IN,1611351664
Saint Anthony,45.0205,-93.218,15.8,41,1,9.22,US,1611351664
Provideniya,64.3833,-173.3,4.77,91,35,3.96,RU,1611351664
Mehrān,33.1222,46.1646,32.0,55,0,6.91,IR,1611351665
Ahipara,-35.1667,173.1667,66.2,60,78,7.05,NZ,1611351665
Tilichiki,60.4667,166.1,-0.83,94,100,8.7,RU,1611351665
Port Said,31.2565,32.2841,60.8,59,20,11.5,EG,1611351666
Quilmaná,-12.95,-76.3833,74.98,64,51,5.84,PE,1611351666
Ürümqi,43.801,87.6005,26.6,93,90,8.95,CN,1611351666
Yerbogachën,61.2767,108.0108,-52.46,74,80,5.68,RU,1611351666
Mozarlândia,-14.7447,-50.5706,78.04,74,87,4.9,BR,1611351666
Leh,34.1667,77.5833,11.55,74,80,5.12,IN,1611351667
Leningradskiy,69.3833,178.4167,-7.69,89,100,13.78,RU,1611351667
Liepāja,56.5419,21.0367,41.0,87,90,6.91,LV,1611351667
Collie,-33.3667,116.15,57.0,84,0,2.3,AU,1611351667
Klaksvík,62.2266,-6.589,33.8,86,20,16.11,FO,1611351668
Yar-Sale,66.8333,70.8333,-37.5,82,69,6.87,RU,1611351668
Gigmoto,13.7796,124.39,79.25,84,48,6.71,PH,1611351668
Kristiansund,63.1115,7.732,37.4,81,20,5.75,NO,1611351668
Cabedelo,-6.9811,-34.8339,78.8,78,75,12.66,BR,1611351586
Frontera,26.9333,-101.45,78.8,38,20,4.61,MX,1611351669
Licheng,23.2955,113.8284,64.99,82,0,8.95,CN,1611351669
Vao,-22.6667,167.4833,76.44,78,100,21.88,NC,1611351669
Ardakān,32.31,54.0175,30.2,40,0,4.61,IR,1611351670
Vila Franca do Campo,37.7167,-25.4333,61.0,94,20,17.27,PT,1611351670
Inhambane,-23.865,35.3833,80.04,89,87,13.44,MZ,1611351670
Flin Flon,54.7682,-101.865,-2.2,78,90,4.61,CA,1611351670
Wahiawā,21.5028,-158.0236,82.4,47,40,11.5,US,1611351671
Cockburn Town,21.4612,-71.1419,78.8,73,40,4.61,TC,1611351671
Yarmouth,41.7057,-70.2286,39.99,60,75,10.51,US,1611351671
Hasaki,35.7333,140.8333,48.2,76,75,16.11,JP,1611351546
Durazno,-33.4131,-56.5006,89.6,45,40,9.22,UY,1611351672
Buin,-33.7333,-70.75,88.0,35,0,8.05,CL,1611351672
Santa Fe,-31.6333,-60.7,96.01,41,12,5.01,AR,1611351471
Ostrovnoy,68.0531,39.5131,-1.12,92,93,15.01,RU,1611351672
Soubre,5.7856,-6.6083,74.82,79,4,3.33,CI,1611351672
Torbay,47.6666,-52.7314,26.01,86,20,16.11,CA,1611351673
Joshīmath,30.5667,79.5667,46.02,41,100,1.45,IN,1611351673
Bondoukou,8.0333,-2.8,76.28,18,0,1.97,CI,1611351673
Tabou,4.423,-7.3528,78.48,84,7,6.67,CI,1611351674
Tavricheskoye,54.5851,73.6395,-18.4,76,98,4.47,RU,1611351674
Kahului,20.8947,-156.47,80.6,54,20,21.85,US,1611351520
Solnechnyy,50.7214,136.6319,-12.71,80,17,3.49,RU,1611351674
Chokurdakh,70.6333,147.9167,-43.85,79,30,2.95,RU,1611351675
Nova Aurora,-22.8667,-52.5667,76.8,79,71,3.49,BR,1611351675
Biasca,46.3597,8.9697,34.0,100,75,5.75,CH,1611351675
Port Blair,11.6667,92.75,75.4,73,15,8.99,IN,1611351675
Divnogorsk,55.9594,92.3619,3.2,85,75,2.24,RU,1611351675
Oddur,4.1213,43.8894,74.98,65,27,14.43,SO,1611351676
Tanout,14.9709,8.8879,61.84,28,1,11.65,NE,1611351676
Saraland,30.8207,-88.0706,66.0,92,100,1.01,US,1611351676
Ulladulla,-35.35,150.4667,75.2,57,68,8.05,AU,1611351676
Coahuayana Viejo,18.7333,-103.6833,87.8,33,40,6.29,MX,1611351677
Saint-Philippe,-21.3585,55.7679,78.8,78,0,4.61,RE,1611351677
Fortuna,40.5982,-124.1573,52.0,76,90,13.8,US,1611351677
Williamsburg,37.2707,-76.7075,57.2,30,1,12.66,US,1611351469
Sisimiut,66.9395,-53.6735,20.64,81,9,5.23,GL,1611351678
Galveston,29.3669,-94.9669,69.8,83,90,4.61,US,1611351678
Benghazi,32.1167,20.0667,55.67,49,0,13.98,LY,1611351678
Tutóia,-2.7619,-42.2744,84.2,79,75,11.5,BR,1611351678
Diedorf,48.35,10.7667,39.0,81,75,6.91,DE,1611351678
Touros,-5.1989,-35.4608,80.6,74,40,12.66,BR,1611351679
Pundaguitan,6.3711,126.1689,81.34,76,100,6.53,PH,1611351679
Ulaangom,49.9811,92.0667,-8.93,87,100,1.95,MN,1611351679
Toktogul,41.8708,72.9402,18.07,86,99,1.97,KG,1611351679
Port Keats,-14.25,129.55,78.78,87,100,4.81,AU,1611351680
Puerto Madryn,-42.7692,-65.0385,88.16,25,1,19.13,AR,1611351546
Henties Bay,-22.116,14.2845,70.0,86,100,2.89,NA,1611351680
Salta,-24.7859,-65.4117,78.8,47,75,6.91,AR,1611351680
Sakaiminato,35.55,133.2333,50.0,93,75,18.41,JP,1611351681
San Ramon,37.7799,-121.978,53.01,71,90,11.5,US,1611351433
Ponta Delgada,37.7333,-25.6667,61.0,94,20,17.27,PT,1611351409
Ferme-Neuve,46.7001,-75.4493,15.8,79,100,8.05,CA,1611351681
George,-33.963,22.4617,66.2,100,90,5.75,ZA,1611351682
Tsotíli,40.2667,21.3167,46.4,66,95,8.05,GR,1611351682
Brae,60.3964,-1.353,39.2,65,20,24.16,GB,1611351682
Pandan,14.0453,124.1694,77.43,85,20,3.8,PH,1611351682
Aripuanã,-9.1667,-60.6333,77.07,95,64,1.66,BR,1611351449
Mogadishu,2.0371,45.3438,77.65,87,12,18.32,SO,1611351683
Maningrida,-12.0667,134.2667,76.37,89,100,6.98,AU,1611351683
Saint Paul Harbor,57.79,-152.4072,35.6,93,90,3.36,US,1611351683
Kholm,59.2667,32.85,33.85,93,100,9.01,RU,1611351684
Cruzília,-21.8386,-44.8083,66.49,87,73,5.61,BR,1611351684
Dhārchula,29.85,80.5333,50.94,41,100,1.7,IN,1611351684
Adrar,20.5022,-10.0711,66.72,20,100,10.89,MR,1611351684
Aonla,28.2833,79.15,50.2,60,0,5.14,IN,1611351685
Vanimo,-2.6741,141.3028,79.03,76,100,4.38,PG,1611351685
Tigil',57.8,158.6667,-14.62,89,39,0.87,RU,1611351685
Evensk,61.95,159.2333,2.71,92,100,5.66,RU,1611351686
Motema,8.6,-11.0333,70.65,42,96,1.48,SL,1611351687
Flinders,-34.5833,150.8552,77.0,72,25,1.99,AU,1611351687
Kennett,36.2362,-90.0556,46.4,39,1,13.8,US,1611351687
Chāpra,25.7667,84.75,50.0,100,90,1.36,IN,1611351687
Zacualpan,21.25,-105.1667,84.2,37,1,9.22,MX,1611351688
San Policarpo,12.1791,125.5072,80.83,85,12,8.23,PH,1611351688
Fukuechō,32.6881,128.8419,58.78,93,100,17.05,JP,1611351688
Tessaoua,13.7574,7.9874,63.54,26,77,10.2,NE,1611351688
Clyde River,70.4692,-68.5914,-5.8,84,40,9.22,CA,1611351688
Erzin,36.9559,36.2,45.0,61,10,1.01,TR,1611351689
Delray Beach,26.4615,-80.0728,80.01,50,1,9.22,US,1611351546
Terrace,54.5163,-128.6035,26.6,68,20,11.5,CA,1611351551
Palmas Bellas,9.2319,-80.0867,82.0,70,83,11.99,PA,1611351689
Pajapan,18.25,-94.7,82.4,65,40,11.5,MX,1611351690
Pathalgaon,22.5667,83.4667,54.01,39,0,3.78,IN,1611351690
Micheweni,-4.9667,39.8333,81.0,78,67,12.91,TZ,1611351690
Kaeo,-35.1,173.7833,71.01,64,10,3.0,NZ,1611351690
Zhoukou,33.6333,114.6333,38.73,78,85,5.7,CN,1611351691
Kavieng,-2.5744,150.7967,82.09,71,96,6.15,PG,1611351691
Tirano,46.2154,10.1679,46.0,70,100,3.42,IT,1611351691
Caravelas,-17.7125,-39.2481,76.39,81,11,6.33,BR,1611351692
Lavrentiya,65.5833,-171.0,3.42,93,98,3.38,RU,1611351692
Longyearbyen,78.2186,15.6401,8.6,72,20,14.97,SJ,1611351692
Ancud,-41.8697,-73.8203,80.6,47,0,11.5,CL,1611351692
Cidreira,-30.1811,-50.2056,74.61,84,78,17.34,BR,1611351655
Petropavlovsk-Kamchatskiy,53.0452,158.6483,5.0,66,100,6.71,RU,1611351693
Safi,32.2994,-9.2372,59.49,90,9,9.31,MA,1611351693
Cherskiy,68.75,161.3,-30.05,83,100,4.43,RU,1611351693
Dubbo,-32.25,148.6167,75.2,60,0,4.61,AU,1611351694
Mayo,38.8876,-76.5119,46.4,42,1,11.5,US,1611351694
Port Lincoln,-34.7333,135.8667,72.28,56,0,13.58,AU,1611351694
Camacha,33.0833,-16.3333,59.0,94,20,2.3,PT,1611351694
High Level,58.5169,-117.136,3.2,78,40,14.97,CA,1611351695
Sokolo,14.7328,-6.1219,71.64,19,0,11.34,ML,1611351695
Faya,18.3851,42.4509,55.4,35,12,4.61,SA,1611351695
Wu’an,31.6836,112.0044,41.04,67,0,5.1,CN,1611351695
Nemuro,43.3236,145.575,19.76,90,48,17.49,JP,1611351696
Arlit,18.7369,7.3853,62.28,26,0,4.9,NE,1611351696
Katobu,-4.9408,122.5276,75.2,93,20,1.52,ID,1611351696
Kaitangata,-46.2817,169.8464,55.99,61,100,3.0,NZ,1611351696
Unaí,-16.3575,-46.9061,73.56,78,56,4.9,BR,1611351696
Waddān,29.1614,16.139,52.77,41,0,10.45,LY,1611351494
Nucet,44.7833,25.55,39.99,72,70,3.91,RO,1611351697
Erice,38.037,12.5865,57.99,88,0,21.85,IT,1611351697
Morón,-34.6534,-58.6198,90.0,36,0,5.01,AR,1611351697
Bonavista,48.6499,-53.1147,27.0,93,53,10.36,CA,1611351698
Beli Manastir,45.77,18.6036,50.0,81,0,12.66,HR,1611351698
Havøysund,70.9963,24.6622,10.4,72,20,24.16,NO,1611351698
Eilat,29.5581,34.9482,57.2,30,0,9.22,IL,1611351698
Kenora,49.8167,-94.4337,8.6,72,90,6.91,CA,1611351418
Pakxan,18.3778,103.6601,60.26,78,1,3.38,LA,1611351699
Muli,2.9167,73.5667,82.04,74,41,7.72,MV,1611351699
Rapid Valley,44.0625,-103.1463,33.01,59,75,11.5,US,1611351699
Valleyview,55.0667,-117.2859,19.4,73,100,10.36,CA,1611351699
Goālpāra,26.1667,90.6167,58.03,79,0,3.18,IN,1611351700
Biak,-0.9131,122.8766,77.22,75,100,3.42,ID,1611351700
Nochistlán de Mejía,21.3667,-102.85,77.0,15,1,16.11,MX,1611351700
Kushiro,42.975,144.3747,12.49,89,0,5.23,JP,1611351700
Plácido de Castro,-10.3353,-67.1856,74.01,97,94,2.15,BR,1611351701
Stykkisholmur,65.0757,-22.7297,26.78,90,40,34.83,IS,1611351701
East London,-33.0153,27.9116,77.09,88,65,14.34,ZA,1611351701
Touho,-20.7833,165.2333,76.39,88,100,20.71,NC,1611351702
Husavik,66.0449,-17.3389,28.4,86,90,33.38,IS,1611351702
The Pas,53.8251,-101.2541,3.2,72,20,4.61,CA,1611351702
Reconquista,-29.15,-59.65,88.02,50,94,7.56,AR,1611351702
Wanning,18.8003,110.3967,66.06,89,0,3.44,CN,1611351421
Glendive,47.1053,-104.7125,32.0,59,1,5.75,US,1611351703
Tasiilaq,65.6145,-37.6368,10.4,56,0,2.3,GL,1611351703
Harboøre,56.6175,8.1807,41.0,88,69,1.01,DK,1611351703
Richards Bay,-28.783,32.0377,73.17,83,4,8.81,ZA,1611351703
Kalmunai,7.4167,81.8167,76.17,81,14,5.1,LK,1611351703
Vestmannaeyjar,63.4427,-20.2734,28.42,89,1,26.17,IS,1611351704
Koslan,63.4564,48.8989,-12.86,88,100,7.34,RU,1611351704
Minsk,53.9,27.5667,33.01,93,20,6.71,BY,1611351670
Zhumadian,32.9794,114.0294,40.05,71,91,6.2,CN,1611351705
Fairbanks,64.8378,-147.7164,27.0,79,75,4.61,US,1611351604
Olpād,21.3333,72.75,67.14,62,0,6.71,IN,1611351705
Chāndbāli,20.7833,86.7667,61.11,88,0,4.07,IN,1611351705
Hualmay,-11.0964,-77.6139,74.57,70,42,10.58,PE,1611351706
Buala,-8.145,159.5921,83.08,62,100,8.77,SB,1611351706
Sydney,-33.8679,151.2073,80.01,78,0,11.5,AU,1611351706
Gouré,13.9835,10.2704,66.99,18,44,7.0,NE,1611351707
Chui,-33.6971,-53.4616,73.65,76,1,13.76,UY,1611351707
Yulara,-25.2406,130.9889,78.8,14,100,5.75,AU,1611351707
Tomatlán,19.9333,-105.25,93.87,27,0,8.77,MX,1611351707
Faanui,-16.4833,-151.75,80.56,74,0,13.65,PF,1611351707
Fare,-16.7,-151.0167,80.6,72,31,11.92,PF,1611351708
Ciudad Bolivar,8.1222,-63.5497,86.43,54,100,9.69,VE,1611351708
Plouzané,48.3833,-4.6167,42.8,75,0,9.22,FR,1611351708
Tuatapere,-46.1333,167.6833,55.99,64,100,8.99,NZ,1611351708
Indian Head,38.6001,-77.1622,46.0,37,54,10.0,US,1611351709
Sungai Penuh,-2.0833,101.3833,61.81,80,63,2.17,ID,1611351709
Shelburne,44.0787,-80.2041,23.0,68,90,10.36,CA,1611351709
Anking,30.5092,117.0506,47.46,91,100,2.55,CN,1611351709
Hanna,51.6334,-111.9018,26.6,79,74,13.8,CA,1611351709
Itainópolis,-7.4469,-41.4783,78.03,65,100,2.84,BR,1611351709
Fort Nelson,58.8053,-122.7002,12.2,92,75,9.22,CA,1611351710
Padang,-0.9492,100.3543,75.2,88,20,2.3,ID,1611351710
Mandalgovi,45.7625,106.2708,10.06,84,0,4.12,MN,1611351710
Nicoya,10.1483,-85.452,87.8,51,40,18.41,CR,1611351710
Rawson,-43.3002,-65.1023,86.54,25,0,19.98,AR,1611351710
Hanzhong,33.0728,107.0303,41.11,68,0,1.32,CN,1611351711
Lompoc,34.6391,-120.4579,55.4,82,77,17.27,US,1611351619
Byron Bay,-28.65,153.6167,72.0,78,36,5.5,AU,1611351660
Shangzhi,45.2167,127.9667,0.34,84,0,1.63,CN,1611351444
Uttiramerūr,12.6,79.7667,75.2,88,20,2.3,IN,1611351711
Arrondissement de Soissons,49.3333,3.3333,37.99,90,75,1.99,FR,1611351712
Derzhavīnsk,51.1,66.3167,0.72,92,100,15.61,KZ,1611351712
Niedernhausen,50.15,8.3167,44.01,98,100,2.46,DE,1611351712
Haines Junction,60.7522,-137.5108,1.4,92,99,1.14,CA,1611351712
Krasnooktyabrskiy,44.9328,38.3712,44.01,71,81,8.52,RU,1611351712
Upington,-28.4478,21.2561,80.6,78,27,4.61,ZA,1611351713
Sept-Îles,50.2001,-66.3821,16.0,73,40,5.75,CA,1611351481
Kilindoni,-7.9139,39.6668,81.88,78,97,15.9,TZ,1611351713
Leer,8.3018,30.1418,77.43,30,65,5.53,SS,1611351713
Iquitos,-3.7481,-73.2472,86.0,66,75,9.22,PE,1611351714
Olinda,-8.0089,-34.8553,80.6,61,40,11.5,BR,1611351433
Maromitsa,59.8683,48.0123,-2.34,91,100,8.46,RU,1611351714
El Salvador,13.8333,-88.9167,87.8,42,20,3.44,SV,1611351714
Garoowe,8.4054,48.4845,66.58,54,64,11.56,SO,1611351714
Emerald,-23.5333,148.1667,75.99,69,16,9.22,AU,1611351715
Krasnosel'kup,65.7,82.4667,-41.96,75,0,9.22,RU,1611351715
Shitkino,56.3703,98.3543,-4.27,91,100,3.87,RU,1611351715
Eureka,40.8021,-124.1637,51.01,80,29,5.01,US,1611351654
Nantucket,41.2835,-70.0995,39.99,70,90,10.36,US,1611351715
Benjamín Aceval,-24.9667,-57.5667,80.6,89,75,5.75,PY,1611351716
Gizo Government Station,-8.103,156.8419,82.69,73,53,11.97,SB,1611351716
Cap Malheureux,-19.9842,57.6142,80.01,74,41,1.01,MU,1611351716
Pingliang,35.5392,106.6861,29.1,87,4,0.65,CN,1611351716
Mongu,-15.2484,23.1274,68.31,91,100,4.99,ZM,1611351716
Ipirá,-12.1583,-39.7372,75.88,61,97,12.28,BR,1611351717
Gus-Zheleznyy,55.0581,41.1656,31.91,99,100,7.16,RU,1611351717
Magadan,59.5667,150.8,-8.72,76,16,6.04,RU,1611351717
Igarka,67.4667,86.5833,-36.8,73,0,7.16,RU,1611351717
Acapulco de Juárez,16.8634,-99.8901,84.2,79,1,14.97,MX,1611351562
Miragoâne,18.4423,-73.0876,80.22,68,14,1.99,HT,1611351718
Thinadhoo,0.5333,72.9333,82.33,61,38,4.29,MV,1611351718
Itapipoca,-3.4944,-39.5786,75.61,84,99,2.75,BR,1611351718
Blagoyevo,63.3667,47.9167,-10.62,88,100,6.96,RU,1611351718
Yamada,39.4667,141.95,28.56,92,27,5.3,JP,1611351718
Itaituba,-4.2761,-55.9836,84.2,70,20,3.44,BR,1611351718
Omsukchan,62.5333,155.8,-31.94,80,100,4.94,RU,1611351719
Yerköy,39.6381,34.4672,32.2,86,18,4.18,TR,1611351719
Porto Velho,-8.7619,-63.9039,80.6,83,75,0.49,BR,1611351719
Miles City,46.4083,-105.8406,30.2,55,1,3.44,US,1611351719
Omboué,-1.5746,9.2618,77.09,87,100,3.27,GA,1611351720
Changde,29.0464,111.6783,45.25,88,0,3.65,CN,1611351720
Parintins,-2.6283,-56.7358,77.54,91,100,2.28,BR,1611351720
Zliten,32.4674,14.5687,59.05,46,98,7.31,LY,1611351504
Aksarka,66.5606,67.7975,-38.16,82,86,5.06,RU,1611351721
Port Shepstone,-30.7414,30.455,74.93,87,0,17.47,ZA,1611351721
Puerto Quijarro,-17.7833,-57.7667,81.75,67,80,3.53,BO,1611351721
Kulhudhuffushi,6.6221,73.07,81.73,75,62,9.22,MV,1611351721
Port Moresby,-9.4431,147.1797,77.0,94,40,5.75,PG,1611351721
Santa Rosa,14.3122,121.1114,77.0,94,75,1.14,PH,1611351676
Jagodina,43.9814,21.2622,50.0,71,0,13.8,RS,1611351722
Mokolo,10.7398,13.8019,63.61,29,89,5.19,CM,1611351722
Nizhniy Ingash,56.2,96.53,3.06,93,100,5.28,RU,1611351722
Kieta,-6.2167,155.6333,82.02,62,100,6.8,PG,1611351723
Kathmandu,27.7167,85.3167,44.6,93,20,2.3,NP,1611351723
Lubango,-14.9172,13.4925,56.59,79,89,4.41,AO,1611351723
Arua,3.0201,30.9111,73.87,41,75,1.97,UG,1611351723
Taoudenni,22.6783,-3.9836,65.79,20,0,9.89,ML,1611351724
Kutum,14.2,24.6667,54.81,35,79,7.56,SD,1611351724
Tura,25.5198,90.2201,56.53,75,0,3.67,IN,1611351724
Margate,51.3813,1.3862,39.99,81,97,3.0,GB,1611351724
Geraldton,-28.7667,114.6,73.4,78,75,9.22,AU,1611351724
Pilar,-9.5972,-35.9567,80.6,69,75,11.5,BR,1611351692
Marzuq,14.4,46.4667,54.97,42,96,3.42,YE,1611351725
Saskylakh,71.9167,114.0833,-21.55,86,100,6.76,RU,1611351725
Imeni Poliny Osipenko,52.4201,136.4853,-23.87,83,0,5.64,RU,1611351725
Broken Hill,-31.95,141.4333,71.6,16,0,3.44,AU,1611351725
Strezhevoy,60.7333,77.5889,-41.8,66,20,4.47,RU,1611351726
São Filipe,14.8961,-24.4956,77.31,51,62,11.72,CV,1611351726
Hōfu,34.05,131.5667,48.99,95,100,4.56,JP,1611351726
Imbituba,-28.24,-48.6703,71.6,94,75,2.3,BR,1611351726
Cabinda,-5.55,12.2,79.75,83,100,5.14,AO,1611351726
Nuuk,64.1835,-51.7216,21.2,86,20,13.8,GL,1611351664
Fulton,33.7668,-84.4499,57.99,38,1,9.22,US,1611351697
Manavālakurichi,8.1333,77.3,80.6,83,20,2.3,IN,1611351727
Dengzhou,37.8086,120.7508,32.63,93,100,6.38,CN,1611351728
Rafai,4.95,23.9167,71.74,36,98,2.46,CF,1611351729
Fershampenuaz,53.5202,59.8117,-5.06,91,100,10.8,RU,1611351729
Los Llanos de Aridane,28.6585,-17.9182,66.2,94,75,10.36,ES,1611351730
Te Anau,-45.4167,167.7167,59.94,69,98,6.85,NZ,1611351730
Altamont,42.2068,-121.7372,39.99,60,90,10.36,US,1611351730
Vuktyl,63.8567,57.3094,-19.1,85,88,2.95,RU,1611351730
Talnakh,69.4865,88.3972,-38.11,73,7,0.54,RU,1611351446
Piney Green,34.716,-77.3202,55.4,35,1,6.91,US,1611351731
Uchiza,-8.4592,-76.4633,83.93,65,58,1.88,PE,1611351731
San Andrés,12.5847,-81.7006,82.4,69,75,12.66,CO,1611351731
Quesnel,52.9999,-122.5029,14.0,85,90,1.41,CA,1611351676
Venezuela,8.0,-66.0,90.18,40,100,11.5,VE,1611351479
Normandin,48.8333,-72.5321,14.0,85,100,4.61,CA,1611351732
North Branch,45.5113,-92.9802,14.0,48,40,6.91,US,1611351733
Aseri,59.4506,26.8675,35.67,89,94,13.94,EE,1611351733
Naze,28.3667,129.4833,65.89,93,87,12.5,JP,1611351733
Nizhniy Kuranakh,58.8353,125.4869,-30.64,82,100,2.1,RU,1611351734
Penzance,50.1186,-5.5371,41.0,81,40,8.05,GB,1611351734
Dzaoudzi,-12.7887,45.2699,80.6,83,0,4.61,YT,1611351734
Storforshei,66.4043,14.5233,19.4,58,75,17.27,NO,1611351734
Campbell River,50.0163,-125.2446,44.01,60,1,9.22,CA,1611351645
Bambanglipuro,-7.95,110.2833,77.04,83,100,4.32,ID,1611351735
Stann Creek Town,16.9692,-88.2321,84.0,74,40,8.05,BZ,1611351735
Nizip,37.0097,37.7942,30.2,86,0,4.18,TR,1611351735
Şırnak,37.5228,42.4594,26.91,72,2,4.9,TR,1611351735
Bac Lieu,9.285,105.7244,75.29,86,100,5.99,VN,1611351735
Arys,42.4252,68.795,15.8,86,40,11.18,KZ,1611351736
Straumen,63.8709,11.2999,39.2,65,0,6.91,NO,1611351736
Sasaram,24.951,84.0149,49.98,55,0,3.13,IN,1611351736
Oktyabr'skiy,54.4815,53.471,-6.86,91,99,1.68,RU,1611351736
Zabul Province,32.25,67.25,25.84,79,0,17.67,AF,1611351737
Port Hedland,-20.3167,118.5667,78.8,89,92,4.72,AU,1611351737
Aldan,58.6031,125.3894,-29.65,84,100,1.07,RU,1611351737
Salmās,38.1973,44.7653,14.0,67,0,6.91,IR,1611351737
Conselheiro Pena,-19.1722,-41.4722,74.23,81,67,6.78,BR,1611351737
Slavutych,51.5196,30.7343,34.54,90,100,9.28,UA,1611351633
Gberia Fotombu,9.8833,-11.1667,72.39,20,87,3.13,SL,1611351738
Udachny,66.4167,112.4,-46.08,75,100,3.33,RU,1611351738
Tautira,-17.7333,-149.15,84.2,65,20,21.85,PF,1611351738
Banda Aceh,5.5577,95.3222,75.36,80,39,7.14,ID,1611351739
Bossier City,32.516,-93.7321,53.6,87,90,8.05,US,1611351739
Morehead,37.2711,-87.1764,41.0,33,1,10.36,US,1611351739
Vestmanna,62.1564,-7.1664,33.8,86,20,16.11,FO,1611351739
Caceres,39.522,-6.3748,46.0,82,7,5.99,ES,1611351740
Hope,33.6671,-93.5916,57.99,66,50,1.99,US,1611351740
Calceta,-0.85,-80.1667,82.4,69,40,5.75,EC,1611351740
Puro,12.4841,123.3827,77.63,82,55,1.99,PH,1611351741
Seymchan,62.8833,152.4333,-37.48,80,88,0.94,RU,1611351742
Atar,20.5169,-13.0499,68.05,20,55,8.9,MR,1611351742
Mahina,-17.5065,-149.489,84.2,65,20,21.85,PF,1611351742
Nanortalik,60.1432,-45.2371,22.8,90,1,7.78,GL,1611351742
Mayor Pablo Lagerenza,-19.9309,-60.7718,85.33,58,63,5.53,PY,1611351742
San Patricio,28.017,-97.5169,80.6,54,1,8.05,US,1611351743
Avon Lake,41.5053,-82.0282,28.99,64,90,13.8,US,1611351503
Paidha,2.4167,30.9855,69.89,49,100,2.51,UG,1611351743
Shahreza,32.0339,51.8794,25.9,79,0,5.08,IR,1611351743
Khuzhir,53.1939,107.3397,13.15,93,100,9.64,RU,1611351743
Ténenkou,14.4572,-4.9169,70.68,20,16,11.07,ML,1611351744
Taywarah,33.35,64.4167,6.06,79,0,5.97,AF,1611351744
Kalemie,-5.9475,29.1947,70.63,82,99,5.08,CD,1611351744
Katsuura,35.1333,140.3,50.0,73,100,3.0,JP,1611351745
Batticaloa,7.7102,81.6924,77.09,78,10,5.17,LK,1611351745
Nome,64.5011,-165.4064,33.8,86,90,16.11,US,1611351630
Acarí,-15.4311,-74.6158,78.75,56,8,10.04,PE,1611351745
Buritis,-15.6178,-46.4233,75.4,71,47,5.01,BR,1611351745
Kibala,9.1104,18.3463,73.4,43,0,2.77,TD,1611351746
Chicama,-7.8447,-79.1469,73.4,78,20,11.5,PE,1611351746
Cap-aux-Meules,47.3821,-61.8597,21.2,73,100,10.36,CA,1611351746
Castlegar,49.2998,-117.6689,30.2,59,0,3.44,CA,1611351746
Conde,-7.2597,-34.9075,78.8,78,75,12.66,BR,1611351746
Bulawayo,-20.15,28.5833,61.88,73,0,9.6,ZW,1611351747
Zhigansk,66.7697,123.3711,-44.72,77,100,7.61,RU,1611351747
Buraidah,26.326,43.975,46.4,36,0,3.44,SA,1611351747
Denpasar,-8.65,115.2167,78.8,89,40,6.91,ID,1611351747
Mitsamiouli,-11.3847,43.2844,81.59,77,91,8.32,KM,1611351748
Tecpan,14.7623,-90.9947,80.6,39,20,9.22,GT,1611351748
Hobyo,5.3505,48.5268,76.44,79,18,20.98,SO,1611351748
Nambutalai,9.7167,79.0,77.92,80,22,9.66,IN,1611351748
Ishigaki,24.3448,124.1572,69.8,94,75,8.05,JP,1611351748
Killam,52.7834,-111.8518,23.0,80,100,16.11,CA,1611351749
Pokrov,55.92,39.1769,28.54,99,100,6.46,RU,1611351749
Bang Saphan,11.2126,99.5117,67.01,85,18,3.4,TH,1611351750
São João da Barra,-21.6403,-41.0511,80.6,74,0,16.11,BR,1611351750
Shingū,33.7333,135.9833,54.73,90,100,7.65,JP,1611351750
Kangaatsiaq,68.3065,-53.4641,13.42,85,48,7.78,GL,1611351750
La Grande,45.3246,-118.0877,37.0,87,99,3.27,US,1611351750
Tombouctou,20.0,-3.0,66.74,20,47,9.95,ML,1611351751
Ndola,-12.9587,28.6366,64.2,98,100,3.87,ZM,1611351751
Al Bardīyah,31.7561,25.0865,53.24,66,0,1.66,LY,1611351751
